[
  {
    "place_id": "ChIJyeOQ7C201EARk9N2GHU_B_c",
    "lat": 50.32308820000001,
    "lng": 30.2901225,
    "formatted_address": "вулиця Хрещатик, д. 109, Боярка, Київська область, Україна, 08151",
    "business_status": "OPERATIONAL",
    "google_maps_URI": "https://maps.google.com/?cid=17800265824359338899",
    "city": "87FR+62 Боярка, Київська область, Україна",
    "national_phone_number": "097 800 7744",
    "display_name": "АЛЬБА зооветцентр"
  },
  {
    "place_id": "ChIJZ18zIRy11EARyMCkf3tlXq0",
    "lat": 50.3388542,
    "lng": 30.2896984,
    "formatted_address": "вулиця Молодіжна, 48, Боярка, Київська область, Україна, 08150",
    "business_status": "OPERATIONAL",
    "google_maps_URI": "https://maps.google.com/?cid=12492533997469221064",
    "city": "87QQ+GV Боярка, Київська область, Україна",
    "national_phone_number": "063 548 1339",
    "display_name": "Ветеринарна клініка VetPoint"
  },
  {
    "place_id": "ChIJEfo9x8q11EARsPSBsd0b4oI",
    "lat": 50.3309498,
    "lng": 30.2805236,
    "formatted_address": "вулиця 40-річчя Жовтня, Соборности, 51А, Боярка, Київська область, Україна, 08150",
    "business_status": "OPERATIONAL",
    "google_maps_URI": "https://maps.google.com/?cid=9431131208647046320",
    "city": "87JJ+96 Боярка, Київська область, Україна",
    "national_phone_number": "099 064 9173",
    "display_name": "СМАРТВЕТ КЛІНІКА ВЕТЕРИНАРНОЇ МЕДИЦИНИ"
  },
  {
    "place_id": "ChIJwSXMFM211EARwiSsb64FNNc",
    "lat": 50.328360499999995,
    "lng": 30.292159299999998,
    "formatted_address": "вулиця Білогородська, 48, Боярка, Київська область, Україна, 08151",
    "business_status": "OPERATIONAL",
    "google_maps_URI": "https://maps.google.com/?cid=15507025663699461314",
    "city": "87HR+8V Боярка, Київська область, Україна",
    "national_phone_number": "066 408 3946",
    "display_name": "Ветаптека Зоотовари"
  },
  {
    "place_id": "ChIJBUBPOMa11EARhV3DX9iH8nM",
    "lat": 50.3410431,
    "lng": 30.294387999999994,
    "formatted_address": "м, вулиця Богдана Хмельницького, 74/22, Боярка, Київська область, Україна, 08151",
    "business_status": "OPERATIONAL",
    "google_maps_URI": "https://maps.google.com/?cid=8354889622115016069",
    "city": "87RV+CQ Боярка, Київська область, Україна",
    "national_phone_number": "067 734 7874",
    "display_name": "Ветеринарна допомога, ветеринарна аптека"
  },
  {
    "place_id": "ChIJy-_9gcG11EARvB2llXFz0rU",
    "lat": 50.3433559,
    "lng": 30.301575399999997,
    "formatted_address": "вулиця Шевченка, Тарасівка, Київська область, Україна, 08161",
    "business_status": "OPERATIONAL",
    "google_maps_URI": "https://maps.google.com/?cid=13101661197653319100",
    "city": "88V2+8J Тарасівка, Київська область, Україна",
    "national_phone_number": "063 239 2711",
    "display_name": "Зоосвіт"
  },
  {
    "place_id": "ChIJI5JbU_TL1EARIKZTHBpcPYg",
    "lat": 50.34072080000001,
    "lng": 30.293810399999998,
    "formatted_address": "вулиця Богдана Хмельницького, 69, Боярка, Київська область, Україна, 08151",
    "business_status": "OPERATIONAL",
    "google_maps_URI": "https://maps.google.com/?cid=9817104029951698464",
    "city": "87RV+7G Боярка, Київська область, Україна",
    "national_phone_number": "067 317 4019",
    "display_name": "ЗООМАГАЗИН"
  },
  {
    "place_id": "ChIJ_fryZ8G11EARVbP1Y5GXltQ",
    "lat": 50.342607,
    "lng": 30.300686499999998,
    "formatted_address": "Залізнична вулиця, 8а, Боярка, Київська область, Україна, 08151",
    "business_status": "OPERATIONAL",
    "google_maps_URI": "https://maps.google.com/?cid=15318597833250419541",
    "city": "88V2+27 Боярка, Київська область, Україна",
    "national_phone_number": "093 076 7576",
    "display_name": "Зоомагазин \"Royal Pet\""
  },
  {
    "place_id": "ChIJX_UZrc211EARGFh_wHg6r10",
    "lat": 50.3177005,
    "lng": 30.2979596,
    "formatted_address": "вулиця Хрещатик, 6, Боярка, Київська область, Україна, 08150",
    "business_status": "OPERATIONAL",
    "google_maps_URI": "https://maps.google.com/?cid=6750678656751720472",
    "city": "879X+35 Боярка, Київська область, Україна",
    "national_phone_number": "063 312 7790",
    "display_name": "ZooКуток"
  },
  {
    "place_id": "ChIJ17_6uMq11EAR5iCjybgMeyo",
    "lat": 50.330416299999996,
    "lng": 30.277631900000003,
    "formatted_address": "вулиця Соборності, 51А, Боярка, Київська область, Україна, 08151",
    "business_status": "OPERATIONAL",
    "google_maps_URI": "https://maps.google.com/?cid=3061054359524810982",
    "national_phone_number": "099 064 9173",
    "display_name": "Ветеринарный центр ЗООСВІТ"
  },
  {
    "place_id": "ChIJPcrjzcO11EARnFighJ2Drbw",
    "lat": 50.343510699999996,
    "lng": 30.303881699999998,
    "formatted_address": "вулиця Шевченка, 1, Тарасівка, Київська область, Україна, 08161",
    "business_status": "OPERATIONAL",
    "google_maps_URI": "https://maps.google.com/?cid=13595667562659600540",
    "city": "88V3+CH Тарасівка, Київська область, Україна",
    "national_phone_number": null,
    "display_name": "ЗооМаркет"
  },
  {
    "place_id": "ChIJzcnSTJDF1EARjmm3a1M5WKQ",
    "lat": 50.334556,
    "lng": 30.295849900000004,
    "formatted_address": "вулиця Сагайдачного, 22, Проців, Київська область, Україна, 08344",
    "business_status": "OPERATIONAL",
    "google_maps_URI": "https://maps.google.com/?cid=11842278250622970254",
    "city": "87MW+R8 Боярка, Київська область, Україна",
    "national_phone_number": "097 625 7731",
    "display_name": "RotiMarket"
  },
  {
    "place_id": "ChIJnTOy9se11EARd6K3oLcAQ_Q",
    "lat": 50.3365045,
    "lng": 30.2826134,
    "formatted_address": "вулиця Молодіжна, 76, Боярка, Київська область, Україна, 08150",
    "business_status": "OPERATIONAL",
    "google_maps_URI": "https://maps.google.com/?cid=17600912557369434743",
    "city": "87PM+J2 Боярка, Київська область, Україна",
    "national_phone_number": "063 312 7790",
    "display_name": "Paw Paw Зоомагазин"
  },
  {
    "place_id": "ChIJVcFJ5f-11EAR_VdOHhTVHyM",
    "lat": 50.3323821,
    "lng": 30.275958099999993,
    "formatted_address": "вулиця Гоголя, 76/5, Боярка, Київська область, Україна, 08151",
    "business_status": "OPERATIONAL",
    "google_maps_URI": "https://maps.google.com/?cid=2530975797990021117",
    "city": "87JG+X9 Боярка, Київська область, Україна",
    "national_phone_number": "067 746 6696",
    "display_name": "Зоомагазин Кіт Пес"
  },
  {
    "place_id": "ChIJ2SXmUH611EARGmf6MNQ9K7o",
    "lat": 50.3365045,
    "lng": 30.2826134,
    "formatted_address": "вулиця Молодіжна, 76, Боярка, Київська область, Україна, 08151",
    "business_status": "OPERATIONAL",
    "google_maps_URI": "https://maps.google.com/?cid=13414883896617232154",
    "city": "87PM+J2 Боярка, Київська область, Україна",
    "national_phone_number": "097 816 4127",
    "display_name": "ВетАптека зоотовари For Pets"
  },
  {
    "place_id": "ChIJq4qKCjHK1EARzTWbxsLpwWQ",
    "lat": 50.344535099999995,
    "lng": 30.3015865,
    "formatted_address": "Залізнична вулиця, 4, Тарасівка, Київська область, Україна, 08151",
    "business_status": "OPERATIONAL",
    "google_maps_URI": "https://maps.google.com/?cid=7260341097062938061",
    "city": "88V2+RJ Тарасівка, Київська область, Україна",
    "national_phone_number": "068 362 1335",
    "display_name": "AQUA-CITY"
  },
  {
    "place_id": "ChIJhUREhCXI1EARwkOF8ZZpVPA",
    "lat": 50.3411793,
    "lng": 30.427681200000002,
    "formatted_address": "вулиця Кірова, 8а, Чабани, Київська область, Україна, 08162",
    "business_status": "OPERATIONAL",
    "google_maps_URI": "https://maps.google.com/?cid=17317582564164453314",
    "city": "8CRH+F3 Чабани, Київська область, Україна",
    "national_phone_number": "067 325 0860",
    "display_name": "Ветеринарна лікарня Dr. Buryak"
  },
  {
    "place_id": "ChIJ14gi4S7I1EARcgAVKjhfCpU",
    "lat": 50.3418992,
    "lng": 30.422772700000003,
    "formatted_address": "вулиця Машинобудівників, 2-В, Чабани, Київська область, Україна, 08162",
    "business_status": "OPERATIONAL",
    "google_maps_URI": "https://maps.google.com/?cid=10739500956247195762",
    "city": "8CRF+Q4 Чабани, Київська область, Україна",
    "national_phone_number": "0800 304 888",
    "display_name": "Зоомагазин Рудий Кіт"
  },
  {
    "place_id": "ChIJASj1Qd_J1EARLHCz8tM4FWw",
    "lat": 50.348059,
    "lng": 30.421417199999997,
    "formatted_address": "вулиця Київська, 2, Гатне, Київська область, Україна, 08160",
    "business_status": "OPERATIONAL",
    "google_maps_URI": "https://maps.google.com/?cid=7788193613568241708",
    "city": "8CXC+6H Гатне, Київська область, Україна",
    "national_phone_number": "098 521 9788",
    "display_name": "ElitZoo"
  },
  {
    "place_id": "ChIJmcnHD2vJ1EARaLawr8CcSJs",
    "lat": 50.340337,
    "lng": 30.424829000000003,
    "formatted_address": "вул. Покровська, 26, Чабани, Київська область, Україна, 08162",
    "business_status": "OPERATIONAL",
    "google_maps_URI": "https://maps.google.com/?cid=11189365625597245032",
    "city": "8CRF+4W Чабани, Київська область, Україна",
    "national_phone_number": "097 906 5529",
    "display_name": "Зоомаркет MasterZoo"
  },
  {
    "place_id": "ChIJlzAXTQDJ1EARCYoZcOZNpyc",
    "lat": 50.3425927,
    "lng": 30.422440800000004,
    "formatted_address": "вулиця Машинобудівників, 2В, Чабани, Київська область, Україна, 08163",
    "business_status": "OPERATIONAL",
    "google_maps_URI": "https://maps.google.com/?cid=2857338140708407817",
    "city": "8CVC+2X Чабани, Київська область, Україна",
    "national_phone_number": "097 827 1521",
    "display_name": "Зоомагазин"
  },
  {
    "place_id": "ChIJcxpsvBrK1EARWOurlfiith0",
    "lat": 50.3693859,
    "lng": 30.344984000000004,
    "formatted_address": "вулиця Боярська, 4 Б, Віта-Поштова, Київська область, Україна",
    "business_status": "OPERATIONAL",
    "google_maps_URI": "https://maps.google.com/?cid=2141077861407910744",
    "city": "989V+QX Віта-Поштова, Київська область, Україна",
    "national_phone_number": "050 698 1810",
    "display_name": "Зоомагазин Вита-Почтовая"
  },
  {
    "place_id": "ChIJwY_qGPXJ1EAR3A6VlVcoOWw",
    "lat": 50.371218999999996,
    "lng": 30.369257,
    "formatted_address": "вулиця Котирла, 1а, Крюківщина, Київська область, Україна, 08136",
    "business_status": "OPERATIONAL",
    "google_maps_URI": "https://maps.google.com/?cid=7798308586405564124",
    "city": "99C9+FP Крюківщина, Київська область, Україна",
    "national_phone_number": "067 355 6295",
    "display_name": "Мультивет (ми працюємо)"
  },
  {
    "place_id": "ChIJOS4lY3LJ1EAR_woP0G_TW6Q",
    "lat": 50.3694046,
    "lng": 30.389791400000004,
    "formatted_address": "вулиця Одеська, 70С, Крюківщина, Київська область, Україна, 08136",
    "business_status": "OPERATIONAL",
    "google_maps_URI": "https://maps.google.com/?cid=11843292122286328575",
    "city": "999Q+QW Крюківщина, Київська область, Україна",
    "national_phone_number": "063 312 7790",
    "display_name": "Paw Paw Зоомагазин"
  },
  {
    "place_id": "ChIJrwpbYI3J1EAR-Gw0nag5PNc",
    "lat": 50.3702386,
    "lng": 30.383333599999997,
    "formatted_address": "Cív 24 08136 24, вулиця Одеська, Крюківщина, Київська область, Україна, 08136",
    "business_status": "OPERATIONAL",
    "google_maps_URI": "https://maps.google.com/?cid=15509334613111893240",
    "city": "99CM+38 Крюківщина, Київська область, Україна",
    "national_phone_number": "067 217 0201",
    "display_name": "Зоомагазин \"Наглая морда\""
  },
  {
    "place_id": "ChIJK65VBqbJ1EARbQgrbty6FS4",
    "lat": 50.3600128,
    "lng": 30.414533900000002,
    "formatted_address": "Приозерний бульвар, Гатне, Київська область, Україна, 08160",
    "business_status": "OPERATIONAL",
    "google_maps_URI": "https://maps.google.com/?cid=3320765756159494253",
    "city": "9C67+2R Гатне, Київська область, Україна",
    "national_phone_number": "050 801 4110",
    "display_name": "Mister Pet Зоомагазин і Грумінг"
  },
  {
    "place_id": "ChIJHyB0ggDJ1EARgH9Zkm-Sdog",
    "lat": 50.3703079,
    "lng": 30.3808785,
    "formatted_address": "вулиця Одеська, 20а, Крюківщина, Київська область, Україна, 08136",
    "business_status": "OPERATIONAL",
    "google_maps_URI": "https://maps.google.com/?cid=9833207844304420736",
    "city": "99CJ+49 Крюківщина Велика, Київська область, Україна",
    "national_phone_number": "050 449 6565",
    "display_name": "Paw Paw Зоомагазин"
  },
  {
    "place_id": "ChIJeZmiYrrJ1EARoC-TFXlC6I4",
    "lat": 50.348554799999995,
    "lng": 30.4225635,
    "formatted_address": "вул. Валовня Карпа, 18/1, Hatne, Kyivs'ka oblast, Україна, 08160",
    "business_status": "OPERATIONAL",
    "google_maps_URI": "https://maps.google.com/?cid=10297553635803082656",
    "city": "8CXF+C2 Гатно Силівка, Київська область, Україна",
    "national_phone_number": "067 700 8022",
    "display_name": "Зооаптека Рыжий Кот"
  },
  {
    "place_id": "ChIJlWnq9vnJ1EARm4auXo8BV00",
    "lat": 50.3657532,
    "lng": 30.4366915,
    "formatted_address": "вул. Абрикосова, 15а, Гатне, Київська область, Україна, 08159",
    "business_status": "OPERATIONAL",
    "google_maps_URI": "https://maps.google.com/?cid=5572924779174725275",
    "city": "9C8P+8M Гатно Силівка, Київська область, Україна",
    "national_phone_number": "063 135 4646",
    "display_name": "Ветеринарна клініка Vet.generation"
  },
  {
    "place_id": "ChIJC_w2X1zI1EARFvyINcCFceA",
    "lat": 50.3601283,
    "lng": 30.462645000000002,
    "formatted_address": "вулиця Київська 15 с.Новосілки, Київ, Київська область, Україна, 08163",
    "business_status": "OPERATIONAL",
    "google_maps_URI": "https://maps.google.com/?cid=16172854797442546710",
    "city": "9F67+33 Київ, місто Київ, Україна",
    "national_phone_number": "096 042 5554",
    "display_name": "Ветеринарна клініка в Новосілках -Київ Голосіївський район Теремки"
  },
  {
    "place_id": "ChIJG7qCzlbI1EARJdoTz5CGKyc",
    "lat": 50.3663999,
    "lng": 30.4520931,
    "formatted_address": "проспект Академіка Глушкова, 26, Київ, Україна, 03187",
    "business_status": "OPERATIONAL",
    "google_maps_URI": "https://maps.google.com/?cid=2822497547985345061",
    "city": "9F82+HR Київ, місто Київ, Україна",
    "national_phone_number": "096 261 2600",
    "display_name": "Дай лапу"
  },
  {
    "place_id": "ChIJXyRy_ljI1EAR-RHO0fXNlDk",
    "lat": 50.366174799999996,
    "lng": 30.453830999999997,
    "formatted_address": "проспект Академіка Глушкова, 31-а, Київ, Україна, 03187",
    "business_status": "OPERATIONAL",
    "google_maps_URI": "https://maps.google.com/?cid=4149167612385694201",
    "city": "9F83+FG Київ, місто Київ, Україна",
    "national_phone_number": "067 700 8033",
    "display_name": "Зоомагазин \"Рижий Кіт\""
  },
  {
    "place_id": "ChIJNWHcNojL1EARNeas9x5rzvw",
    "lat": 50.3729993,
    "lng": 30.444385099999998,
    "formatted_address": "Кільцева дорога, 1, Київ, Україна, 02000",
    "business_status": "OPERATIONAL",
    "google_maps_URI": "https://maps.google.com/?cid=18216615323508729397",
    "city": "9CFV+5Q Київ, місто Київ, Україна",
    "national_phone_number": "050 549 1185",
    "display_name": "Зоомаркет MasterZoo"
  },
  {
    "place_id": "ChIJoZWc4UXJ1EAR9jKxmIlxm14",
    "lat": 50.3669449,
    "lng": 30.455817199999995,
    "formatted_address": "проспект Академіка Глушкова, 27, Київ, Україна, 02000",
    "business_status": "OPERATIONAL",
    "google_maps_URI": "https://maps.google.com/?cid=6817167296741585654",
    "city": "9F84+Q8 Київ, місто Київ, Україна",
    "national_phone_number": "063 307 8746",
    "display_name": "Зоомагазин Animal Planet"
  }
]
